{"type":"FeatureCollection","features":[{"id":1,"type":"Feature","geometry":{"type":"Point","coordinates":[4.845592,52.36225]},"properties":{"KmlName":"733","Naam":"Rembrandtpark","Projectomschrijving":"Toegankelijkheid van 3 entrees verbeteren: Jan Evertsenstraat, Orteliuskade en Staalmeesterlaan. Meer openbaar maken van de schooltuin. Verbeteren recreatieve route door aanpak bruggen.","Project_betreft_herinrichting":"Ja","Project_betreft_verbetering_van":"ja (3)","Project_betreft_verbetering_v_1":"","Basisvoorzieningen_wordt_gereal":"","Realisatie":"Prognose 2018"}},{"id":2,"type":"Feature","geometry":{"type":"Point","coordinates":[4.810429,52.370248]},"properties":{"KmlName":"702","Naam":"Sloterpark","Projectomschrijving":"Verbeteren grasvelden, vernieuwen groen heemtuin.","Project_betreft_herinrichting":"Ja","Project_betreft_verbetering_van":"","Project_betreft_verbetering_v_1":"Ja (1)","Basisvoorzieningen_wordt_gereal":"","Realisatie":"Prognose 2018"}},{"id":3,"type":"Feature","geometry":{"type":"Point","coordinates":[4.920091,52.395862]},"properties":{"KmlName":"728","Naam":"Noorderpark","Projectomschrijving":"Aanleg nieuwe entree en duurzaam evenemententerrein bij nieuwe metrohalte. Realisatie van: toiletten, sport voorzieningen, groene nutsvoorzieningen en evenemententerrein.","Project_betreft_herinrichting":"Ja","Project_betreft_verbetering_van":"Ja (1)","Project_betreft_verbetering_v_1":"","Basisvoorzieningen_wordt_gereal":"Ja (2: toilet, watertappunt)","Realisatie":"Prognose 2018"}},{"id":4,"type":"Feature","geometry":{"type":"Point","coordinates":[4.950342,52.36005]},"properties":{"KmlName":"724","Naam":"Flevopark","Projectomschrijving":"Drainage grasveld met pomp met zonnepaneel. Vernieuwen natuurspeeltuin.","Project_betreft_herinrichting":"","Project_betreft_verbetering_van":"","Project_betreft_verbetering_v_1":"Ja (1)","Basisvoorzieningen_wordt_gereal":"Ja (4: toilet, watertappunt, horeca en voorzieningen voor bewegi","Realisatie":"In uitvoering 2017"}},{"id":5,"type":"Feature","geometry":{"type":"Point","coordinates":[4.893846,52.329169]},"properties":{"KmlName":"717","Naam":"Amstelpark","Projectomschrijving":"Aanleg natuurlijke oevers.","Project_betreft_herinrichting":"","Project_betreft_verbetering_van":"","Project_betreft_verbetering_v_1":"","Basisvoorzieningen_wordt_gereal":"","Realisatie":"In uitvoering 2017"}},{"id":6,"type":"Feature","geometry":{"type":"Point","coordinates":[4.896539,52.354376]},"properties":{"KmlName":"722","Naam":"Sarphatipark","Projectomschrijving":"Gazon op afschot leggen  \/ oevers van vijvers verlagen \/ drainage en grintkisten. Renovatie bestaand openbaar toilet. Aanleg natuurlijke oevers. Aanleg van een ecologische speelplek + verplaatsen basketbalveld.","Project_betreft_herinrichting":"Ja","Project_betreft_verbetering_van":"","Project_betreft_verbetering_v_1":"Ja (1)","Basisvoorzieningen_wordt_gereal":"Ja (4: toilet, watertappunt, horeca en voorzieningen voor bewegi","Realisatie":"Prognose 2018"}},{"id":7,"type":"Feature","geometry":{"type":"Point","coordinates":[4.905805,52.339482]},"properties":{"KmlName":"720","Naam":"Martin Luther Kingpark","Projectomschrijving":"Uitbreiding park met het voormalig werfterrein aan de Kennedylaan. Toegang naar het park voor mindervaliden. Betere drainage en het park benutten voor wateropslag uit de Rivierenbuurt. Vergroten kwantiteit groen en verbetering biodiversiteit door: meer b","Project_betreft_herinrichting":"Ja","Project_betreft_verbetering_van":"Ja (1)","Project_betreft_verbetering_v_1":"Ja (1)","Basisvoorzieningen_wordt_gereal":"","Realisatie":"Prognose 2018"}},{"id":8,"type":"Feature","geometry":{"type":"Point","coordinates":[4.992435,52.310594]},"properties":{"KmlName":"711","Naam":"Gaasperpark","Projectomschrijving":"Herinrichting Hoofdentreegebied (vanaf metro Gaasperplas) + verbetering entrees vanuit de aangrenzende buurten, de aangrenzende natuurgebieden en het ommeland verduidelijken en beter inrichten.","Project_betreft_herinrichting":"Ja","Project_betreft_verbetering_van":"Ja (1)","Project_betreft_verbetering_v_1":"","Basisvoorzieningen_wordt_gereal":"","Realisatie":"Prognose 2018"}},{"id":9,"type":"Feature","geometry":{"type":"Point","coordinates":[4.962317,52.311398]},"properties":{"KmlName":"712","Naam":"Nelson Mandelapark","Projectomschrijving":"Verbeteren drainage door het aanbrengen van zand met een betere structuur voor een optimale drainage. Daarnaast wordt extra grond aangebracht om het terrein tonrond te maken.","Project_betreft_herinrichting":"","Project_betreft_verbetering_van":"","Project_betreft_verbetering_v_1":"Ja (1)","Basisvoorzieningen_wordt_gereal":"","Realisatie":"In uitvoering 2017"}},{"id":10,"type":"Feature","geometry":{"type":"Point","coordinates":[4.905804,52.337096]},"properties":{"KmlName":"719","Naam":"Martin Luther Kingpark","Projectomschrijving":"Aanpassing Paradeterrein, entrees, zuidelijk deel, Rainproof Rivierenbuurt.","Project_betreft_herinrichting":"","Project_betreft_verbetering_van":"Ja (1)","Project_betreft_verbetering_v_1":"","Basisvoorzieningen_wordt_gereal":"","Realisatie":"Gerealiseerd 2016"}},{"id":11,"type":"Feature","geometry":{"type":"Point","coordinates":[4.836393,52.320121]},"properties":{"KmlName":"725","Naam":"Amsterdamse Bos","Projectomschrijving":"Inrichting ecopassage, herinrichting en vergroening entreegebied, ecologische verbindingszone ringvaart-bosrandweg","Project_betreft_herinrichting":"","Project_betreft_verbetering_van":"Ja (1)","Project_betreft_verbetering_v_1":"","Basisvoorzieningen_wordt_gereal":"","Realisatie":"In uitvoering 2017"}},{"id":12,"type":"Feature","geometry":{"type":"Point","coordinates":[4.949655,52.364348]},"properties":{"KmlName":"723","Naam":"Flevopark","Projectomschrijving":"Verhelpen wateroverlast nabij zwembad.","Project_betreft_herinrichting":"","Project_betreft_verbetering_van":"","Project_betreft_verbetering_v_1":"Ja (1)","Basisvoorzieningen_wordt_gereal":"","Realisatie":"Gerealiseerd 2016"}},{"id":13,"type":"Feature","geometry":{"type":"Point","coordinates":[4.846021,52.366574]},"properties":{"KmlName":"731","Naam":"Rembrandtpark","Projectomschrijving":"Herinrichten op intensiever gebruik en aanleg gedraineerd grasveld.","Project_betreft_herinrichting":"Ja","Project_betreft_verbetering_van":"","Project_betreft_verbetering_v_1":"Ja (1)","Basisvoorzieningen_wordt_gereal":"Ja","Realisatie":"Gerealiseerd 2016"}},{"id":14,"type":"Feature","geometry":{"type":"Point","coordinates":[4.866481,52.329871]},"properties":{"KmlName":"727","Naam":"Gijsbrecht van Aemstelpark","Projectomschrijving":"Verbeteren entrees. De biodiversiteit wordt verhoogd door het aanplanten van vruchtdragende heesters, kruiden in zomen, bollen in onderbegroeiing. Aanleg natuurlijke oevers.","Project_betreft_herinrichting":"Ja","Project_betreft_verbetering_van":"Ja (2)","Project_betreft_verbetering_v_1":"Ja (1)","Basisvoorzieningen_wordt_gereal":"","Realisatie":"Prognose 2018"}},{"id":15,"type":"Feature","geometry":{"type":"Point","coordinates":[4.9205327,52.361109]},"properties":{"KmlName":"744","Naam":"Oosterpark","Projectomschrijving":"Vergroenen van de speeltuin en herinrichting van de omgeving rond het KIT.","Project_betreft_herinrichting":"Ja","Project_betreft_verbetering_van":"Ja (1)","Project_betreft_verbetering_v_1":"","Basisvoorzieningen_wordt_gereal":"Ja (4: toilet, watertappunt, horeca, voorzieningen voor beweging","Realisatie":"In uitvoering 2017"}},{"id":16,"type":"Feature","geometry":{"type":"Point","coordinates":[4.919653,52.360401]},"properties":{"KmlName":"730","Naam":"Oosterpark","Projectomschrijving":"Herinrichten op intensiever gebruik.","Project_betreft_herinrichting":"Ja","Project_betreft_verbetering_van":"","Project_betreft_verbetering_v_1":"","Basisvoorzieningen_wordt_gereal":"Ja","Realisatie":"In uitvoering 2017"}},{"id":17,"type":"Feature","geometry":{"type":"Point","coordinates":[4.872382,52.387361]},"properties":{"KmlName":"734","Naam":"Westerpark","Projectomschrijving":"Entree Basculebrug vernieuwen; herinrichting tuin villa. Drainage grasveld. Nieuwe duurzame planten en bomen (in 2 projecten). Vernieuwen van bebording, picknickbanken en -tafels, fietsparkeervoorzieningen, hekjes, palen en verlichting.","Project_betreft_herinrichting":"Ja","Project_betreft_verbetering_van":"Ja (1)","Project_betreft_verbetering_v_1":"Ja (1)","Basisvoorzieningen_wordt_gereal":"","Realisatie":"Prognose 2018"}},{"id":18,"type":"Feature","geometry":{"type":"Point","coordinates":[4.9172666,52.3604148]},"properties":{"KmlName":"735","Naam":"Oosterpark","Projectomschrijving":"Herinrichting van delen 2015-2016","Project_betreft_herinrichting":"ja","Project_betreft_verbetering_van":"","Project_betreft_verbetering_v_1":"","Basisvoorzieningen_wordt_gereal":"","Realisatie":"Gerealiseerd 2015"}},{"id":19,"type":"Feature","geometry":{"type":"Point","coordinates":[4.9214294,52.3617055]},"properties":{"KmlName":"743","Naam":"Oosterpark","Projectomschrijving":"Toiletten bij het pierenbadje in de zomer","Project_betreft_herinrichting":"","Project_betreft_verbetering_van":"","Project_betreft_verbetering_v_1":"","Basisvoorzieningen_wordt_gereal":"Ja","Realisatie":"Gerealiseerd 2016"}},{"id":20,"type":"Feature","geometry":{"type":"Point","coordinates":[4.9032547,52.3382175]},"properties":{"KmlName":"747","Naam":"Martin Luther Kingpark","Projectomschrijving":"realisatie basisvoorzieningen 2015-2016","Project_betreft_herinrichting":"","Project_betreft_verbetering_van":"","Project_betreft_verbetering_v_1":"","Basisvoorzieningen_wordt_gereal":"4 (lockers, watertappunt, sport\/speeltoestel, hardlooproute)","Realisatie":"Gerealiseerd 2016"}},{"id":21,"type":"Feature","geometry":{"type":"Point","coordinates":[4.9100354,52.3402889]},"properties":{"KmlName":"746","Naam":"Martin Luther Kingpark","Projectomschrijving":"Herinrichting van delen 2015-2016","Project_betreft_herinrichting":"ja","Project_betreft_verbetering_van":"","Project_betreft_verbetering_v_1":"","Basisvoorzieningen_wordt_gereal":"","Realisatie":"Gerealiseerd 2016"}},{"id":22,"type":"Feature","geometry":{"type":"Point","coordinates":[4.8681071,52.3573811]},"properties":{"KmlName":"748","Naam":"Vondelpark","Projectomschrijving":"realisatie basisvoorzieningen 2015-2016","Project_betreft_herinrichting":"","Project_betreft_verbetering_van":"","Project_betreft_verbetering_v_1":"","Basisvoorzieningen_wordt_gereal":"ja (7 watertappunten)","Realisatie":"Gerealiseerd 2016"}},{"id":23,"type":"Feature","geometry":{"type":"Point","coordinates":[4.8482373,52.3232689]},"properties":{"KmlName":"749","Naam":"Amsterdamse Bos","Projectomschrijving":"realisatie basisvoorzieningen 2015-2016","Project_betreft_herinrichting":"","Project_betreft_verbetering_van":"","Project_betreft_verbetering_v_1":"","Basisvoorzieningen_wordt_gereal":"ja (toiletten, watertappunt)","Realisatie":"Gerealiseerd 2016"}},{"id":24,"type":"Feature","geometry":{"type":"Point","coordinates":[4.8120167,52.3662129]},"properties":{"KmlName":"750","Naam":"Sloterpark","Projectomschrijving":"realisatie basisvoorzieningen 2015-2016","Project_betreft_herinrichting":"","Project_betreft_verbetering_van":"","Project_betreft_verbetering_v_1":"","Basisvoorzieningen_wordt_gereal":"ja (sporttoestellen, 4 watertappunten, horeca, zwemstrand)","Realisatie":"Gerealiseerd 2016"}},{"id":25,"type":"Feature","geometry":{"type":"Point","coordinates":[4.9909093,52.3080922]},"properties":{"KmlName":"751","Naam":"Gaasperpark","Projectomschrijving":"realisatie basisvoorzieningen 2015-2016","Project_betreft_herinrichting":"","Project_betreft_verbetering_van":"","Project_betreft_verbetering_v_1":"","Basisvoorzieningen_wordt_gereal":"ja (4 watertappunten)","Realisatie":"Gerealiseerd 2016"}}]}